{
  "48453": {
    "name": "สถานีอุตุนิยมวิทยาเกษตรบางนา (กรมอุตุนิยมวิทยา)",
    "address": "แขวงบางนาใต้ เขตบางนา กรุงเทพมหานคร",
    "lat": 13.6644444,
    "lon": 100.6099444,
    "region": "ภาคกลาง"
  },
  "48454": {
    "name": "สถานีอุตุนิยมวิทยาท่าเรือกรุงเทพฯ (ท่าเรือคลองเตย)",
    "address": "แขวงคลองเตย เขตคลองเตย กรุงเทพมหานคร",
    "lat": 13.7237500,
    "lon": 100.5677222,
    "region": "ภาคกลาง"
  },
  "48455": {
    "name": "สถานีอุตุนิยมวิทยากรุงเทพฯ (ศูนย์ประชุมแห่งชาติสิริกิติ์)",
    "address": "แขวงคลองเตย เขตคลองเตย กรุงเทพมหานคร",
    "lat": 13.7245833,
    "lon": 100.5633333,
    "region": "ภาคกลาง"
  },
  "48456": {
    "name": "สถานีอุตุนิยมวิทยาสนามบินดอนเมือง",
    "address": "แขวงสนามบิน เขตดอนเมือง กรุงเทพมหานคร",
    "lat": 13.9191667,
    "lon": 100.6050000,
    "region": "ภาคกลาง"
  },
  "48400": {
    "name": "สถานีอุตุนิยมวิทยานครสวรรค์",
    "address": "ต.นครสวรรค์ออก อ.เมือง จ.นครสวรรค์",
    "lat": 15.6718333,
    "lon": 100.1323611,
    "region": "ภาคกลาง"
  },
  "48401": {
    "name": "สถานีอุตุนิยมวิทยาเกษตรตากฟ้า",
    "address": "ต.สุขสำราญ อ.ตากฟ้า จ.นครสวรรค์",
    "lat": 15.3493611,
    "lon": 100.5303056,
    "region": "ภาคตะวันตก"
  },
  "48402": {
    "name": "สถานีอุตุนิยมวิทยาเกษตรชัยนาท",
    "address": "ต.บางหลวง อ.สรรพยา จ.ชัยนาท",
    "lat": 15.1582778,
    "lon": 100.1916111,
    "region": "ภาคกลาง"
  },
  "48410": {
    "name": "สถานีอุตุนิยมวิทยาเกษตรอุทัยธานี",
    "address": "ต.น้ำซึม อ.เมือง จ.อุทัยธานี",
    "lat": 15.3741700,
    "lon": 100.0389000,
    "region": "ภาคกลาง"
  },
  "48415": {
    "name": "สถานีอุตุนิยมวิทยาเกษตรพระนครศรีอยุธยา",
    "address": "ต.ท่าเจ้าสนุก อ.ท่าเรือ จ.พระนครศรีอยุธยา",
    "lat": 14.5348333,
    "lon": 100.7250278,
    "region": "ภาคกลาง"
  },
  "48426": {
    "name": "สถานีอุตุนิยมวิทยาลพบุรี",
    "address": "ต.ทะเลชุบศร อ.เมือง จ.ลพบุรี",
    "lat": 14.7999167,
    "lon": 100.6283056,
    "region": "ภาคกลาง"
  },
  "48418": {
    "name": "สถานีอุตุนิยมวิทยาอุทกบัวชุม",
    "address": "ต.บัวชุม อ.ชัยบาดาล จ.ลพบุรี",
    "lat": 15.2666667,
    "lon": 101.1873611,
    "region": "ภาคกลาง"
  },
  "48464": {
    "name": "สถานีอุตุนิยมวิทยาเกษตรราชบุรี",
    "address": "ต.อ่างทอง อ.เมือง จ.ราชบุรี",
    "lat": 13.4893056,
    "lon": 99.7923889,
    "region": "ภาคตะวันตก"
  },
  "48450": {
    "name": "สถานีอุตุนิยมวิทยากาญจนบุรี",
    "address": "ต.บ้านเหนือ อ.เมือง จ.กาญจนบุรี",
    "lat": 14.0223056,
    "lon": 99.5359722,
    "region": "ภาคตะวันตก"
  },
  "48421": {
    "name": "สถานีอุตุนิยมวิทยาทองผาภูมิ",
    "address": "ต.ท่าขนุน อ.ทองผาภูมิ จ.กาญจนบุรี",
    "lat": 14.7445000,
    "lon": 98.6331667,
    "region": "ภาคตะวันตก"
  },
  "48425": {
    "name": "สถานีอุตุนิยมวิทยาสุพรรณบุรี",
    "address": "ต.รั้วใหญ่ อ.เมือง จ.สุพรรณบุรี",
    "lat": 14.4751667,
    "lon": 100.0909722,
    "region": "ภาคกลาง"
  },
  "48427": {
    "name": "สถานีอุตุนิยมวิทยาเกษตรอู่ทอง",
    "address": "ต.จรเข้สามพัน อ.อู่ทอง จ.สุพรรณบุรี",
    "lat": 14.3018889,
    "lon": 99.8592500,
    "region": "ภาคกลาง"
  },
  "48419": {
    "name": "สถานีอุตุนิยมวิทยาเกษตรปทุมธานี",
    "address": "ต.คลองหนึ่ง อ.คลองหลวง จ.ปทุมธานี",
    "lat": 14.1162222,
    "lon": 100.6206389,
    "region": "ภาคกลาง"
  },
  "48420": {
    "name": "สถานีอุตุนิยมวิทยาเกษตรสมุทรปราการ",
    "address": "ต.บางปลา อ.บางพลี จ.สมุทรปราการ",
    "lat": 13.5169167,
    "lon": 100.7612778,
    "region": "ภาคกลาง"
  },
  "48457": {
    "name": "สถานีอุตุนิยมวิทยานำร่อง",
    "address": "ต.ปากน้ำ อ.เมือง จ.สมุทรปราการ",
    "lat": 13.3772222,
    "lon": 100.5994444,
    "region": "ภาคกลาง"
  },
  "48429": {
    "name": "สถานีอุตุนิยมวิทยาสนามบินสุวรรณภุมิ",
    "address": "ต.ราชาเทวะ อ.บางพลี จ.สมุทรปราการ",
    "lat": 13.6863889,
    "lon": 100.7675000,
    "region": "ภาคกลาง"
  },
  "48438": {
    "name": "สถานีอุตุนิยมวิทยาสมุทรสงคราม",
    "address": "ต.แม่กลอง อ.เมือง จ.สมุทรสงคราม",
    "lat": 13.4077800,
    "lon": 100.0322000,
    "region": "ภาคกลาง"
  },
  "48451": {
    "name": "สถานีอุตุนิยมวิทยาเกษตรกำแพงแสน",
    "address": "ต.กำแพงแสน อ.กำแพงแสน จ.นครปฐม",
    "lat": 14.0118333,
    "lon": 99.9700278,
    "region": "ภาคกลาง"
  },
  "48417": {
    "name": "สถานีอุตุนิยมวิทยานครนายก",
    "address": "ต.เขาหินตั้ง อ.เมือง จ.นครนายก",
    "lat": 14.2166667,
    "lon": 101.3833333,
    "region": "ภาคกลาง"
  },
  "48458": {
    "name": "สถานีอุตุนิยมวิทยาเกษตรฉะเชิงเทรา",
    "address": "ต.ลาดกระทิง อ.สนามชัยเขต จ.ฉะเชิงเทรา",
    "lat": 13.5675833,
    "lon": 101.4558333,
    "region": "ภาคตะวันออก"
  },
  "48430": {
    "name": "สถานีอุตุนิยมวิทยาปราจีนบุรี",
    "address": "ต.หน้าเมือง อ.เมือง จ.ปราจีนบุรี",
    "lat": 14.0509167,
    "lon": 101.3693056,
    "region": "ภาคตะวันออก"
  },
  "48439": {
    "name": "สถานีอุตุนิยมวิทยาอุทกกบินทร์บุรี",
    "address": "ต.กบินทร์ อ.กบินทร์บุรี จ.ปราจีนบุรี",
    "lat": 13.9859167,
    "lon": 101.7045556,
    "region": "ภาคตะวันออก"
  },
  "48462": {
    "name": "สถานีอุตุนิยมวิทยาอรัญประเทศ",
    "address": "ต.อรัญประเทศ อ.อรัญประเทศ จ.สระแก้ว",
    "lat": 13.6886944,
    "lon": 102.5041667,
    "region": "ภาคตะวันออก"
  },
  "48440": {
    "name": "สถานีอุตุนิยมวิทยาอุทกสระแก้ว",
    "address": "ต.สระขวัญ อ.เมือง จ.สระแก้ว",
    "lat": 13.7919444,
    "lon": 102.0322500,
    "region": "ภาคตะวันออก"
  },
  "48459": {
    "name": "สถานีอุตุนิยมวิทยาชลบุรี",
    "address": "ต.บ้านสวน อ.เมือง จ.ชลบุรี",
    "lat": 13.3555000,
    "lon": 100.9821944,
    "region": "ภาคตะวันออก"
  },
  "48460": {
    "name": "สถานีอุตุนิยมวิทยาเกาะสีชัง",
    "address": "ต.ท่าเทววงษ์ อ.เกาะสีชัง จ.ชลบุรี",
    "lat": 13.1626389,
    "lon": 100.8025556,
    "region": "ภาคตะวันออก"
  },
  "48461": {
    "name": "สถานีอุตุนิยมวิทยาพัทยา",
    "address": "ต.หนองปรือ อ.บางละมุง จ.ชลบุรี",
    "lat": 12.9234167,
    "lon": 100.8655278,
    "region": "ภาคตะวันออก"
  },
  "48463": {
    "name": "สถานีอุตุนิยมวิทยาแหลมฉบัง",
    "address": "ต.ทุ่งสุขลา อ.ศรีราชา จ.ชลบุรี",
    "lat": 13.0780278,
    "lon": 100.8738889,
    "region": "ภาคตะวันออก"
  },
  "48478": {
    "name": "สถานีอุตุนิยมวิทยาระยอง",
    "address": "ต.ตะพง อ.เมืองระยอง จ.ระยอง",
    "lat": 12.6336944,
    "lon": 101.3407500,
    "region": "ภาคตะวันออก"
  },
  "48479": {
    "name": "สถานีอุตุนิยมวิทยาเกษตรห้วยโป่ง",
    "address": "ต.ห้วยโป่ง อ.เมืองระยอง จ.ระยอง",
    "lat": 12.7348611,
    "lon": 101.1353333,
    "region": "ภาคตะวันออก"
  },
  "48480": {
    "name": "สถานีอุตุนิยมวิทยาจันทบุรี",
    "address": "ต.วัดใหม่ อ.เมือง จ.จันทบุรี",
    "lat": 12.6096944,
    "lon": 102.1040278,
    "region": "ภาคตะวันออก"
  },
  "48481": {
    "name": "สถานีอุตุนิยมวิทยาเกษตรพลิ้ว",
    "address": "ต.ตะปอน อ.ขลุง จ.จันทบุรี",
    "lat": 12.5105000,
    "lon": 102.1699167,
    "region": "ภาคตะวันออก"
  },
  "48501": {
    "name": "สถานีอุตุนิยมวิทยาตราด",
    "address": "ต.คลองใหญ่ อ.คลองใหญ่ จ.ตราด",
    "lat": 11.7803333,
    "lon": 102.8780833,
    "region": "ภาคตะวันออก"
  },
  "48327": {
    "name": "สถานีอุตุนิยมวิทยาเกษตรเชียงใหม่ (ศน.)",
    "address": "ต.สุเทพ อ.เมือง จ.เชียงใหม่",
    "lat": 18.7707778,
    "lon": 98.9684722,
    "region": "ภาคเหนือ"
  },
  "48302": {
    "name": "สถานีอุตุนิยมวิทยาดอยอ่างขาง",
    "address": "ต.ม่อนปิ่น อ.ฝาง จ.เชียงใหม่",
    "lat": 19.9328056,
    "lon": 99.0453333,
    "region": "ภาคเหนือ"
  },
  "48300": {
    "name": "สถานีอุตุนิยมวิทยาแม่ฮ่องสอน",
    "address": "ต.จองคำ อ.เมือง จ.แม่ฮ่องสอน",
    "lat": 19.2989722,
    "lon": 97.9757778,
    "region": "ภาคเหนือ"
  },
  "48325": {
    "name": "สถานีอุตุนิยมวิทยาแม่สะเรียง",
    "address": "ต.บ้านกาศ อ.แม่สะเรียง จ.แม่ฮ่องสอน",
    "lat": 18.1751667,
    "lon": 97.9337500,
    "region": "ภาคเหนือ"
  },
  "48303": {
    "name": "สถานีอุตุนิยมวิทยาเชียงราย",
    "address": "ต.บ้านดู่ อ.เมือง จ.เชียงราย",
    "lat": 19.9614444,
    "lon": 99.8813056,
    "region": "ภาคเหนือ"
  },
  "48304": {
    "name": "สถานีอุตุนิยมวิทยาเกษตรเชียงราย",
    "address": "ต.รอบเวียง อ.เมือง จ.เชียงราย",
    "lat": 19.8727222,
    "lon": 99.7794167,
    "region": "ภาคเหนือ"
  },
  "48310": {
    "name": "สถานีอุตุนิยมวิทยาพะเยา",
    "address": "ต.บ้านต๋อม อ.เมือง จ.พะเยา",
    "lat": 19.1933056,
    "lon": 99.8838056,
    "region": "ภาคเหนือ"
  },
  "48328": {
    "name": "สถานีอุตุนิยมวิทยาลำปาง",
    "address": "ต.พระบาท อ.เมือง จ.ลำปาง",
    "lat": 18.2782778,
    "lon": 99.5065556,
    "region": "ภาคเหนือ"
  },
  "48324": {
    "name": "สถานีอุตุนิยมวิทยาเถิน",
    "address": "ต.ล้อมแรด อ.เถิน จ.ลำปาง",
    "lat": 17.6366111,
    "lon": 99.2447500,
    "region": "ภาคเหนือ"
  },
  "48334": {
    "name": "สถานีอุตุนิยมวิทยาเกษตรห้างฉัตร",
    "address": "ต.เวียงตาล อ.ห้างฉัตร จ.ลำปาง",
    "lat": 18.3251944,
    "lon": 99.3015833,
    "region": "ภาคเหนือ"
  },
  "48329": {
    "name": "สถานีอุตุนิยมวิทยาลำพูน",
    "address": "ต.บ้านกลาง อ.เมือง จ.ลำพูน",
    "lat": 18.5666389,
    "lon": 99.0385833,
    "region": "ภาคเหนือ"
  },
  "48330": {
    "name": "สถานีอุตุนิยมวิทยาแพร่",
    "address": "ต.นาจักร อ.เมือง จ.แพร่",
    "lat": 18.1285556,
    "lon": 100.1622500,
    "region": "ภาคเหนือ"
  },
  "48331": {
    "name": "สถานีอุตุนิยมวิทยาน่าน",
    "address": "ต.ดู่ใต้ อ.เมือง จ.น่าน",
    "lat": 18.7671389,
    "lon": 100.7635000,
    "region": "ภาคเหนือ"
  },
  "48333": {
    "name": "สถานีอุตุนิยมวิทยาเกษตรน่าน",
    "address": "ต.ผาสิงห์ อ.เมือง จ.น่าน",
    "lat": 18.8636944,
    "lon": 100.7418333,
    "region": "ภาคเหนือ"
  },
  "48307": {
    "name": "สถานีอุตุนิยมวิทยาอุทกทุ่งช้าง",
    "address": "ต.ทุ่งช้าง อ.ทุ่งช้าง จ.น่าน",
    "lat": 19.4083056,
    "lon": 100.8824167,
    "region": "ภาคเหนือ"
  },
  "48315": {
    "name": "สถานีอุตุนิยมวิทยาอุทกทาวังผา",
    "address": "ต.ท่าวังผา อ.ท่าวังผา จ.น่าน",
    "lat": 19.1231944,
    "lon": 100.8131111,
    "region": "ภาคเหนือ"
  },
  "48351": {
    "name": "สถานีอุตุนิยมวิทยาอุตรดิตถ์",
    "address": "ต.ท่าอิฐ อ.เมือง จ.อุตรดิตถ์",
    "lat": 17.6245000,
    "lon": 100.0971944,
    "region": "ภาคเหนือ"
  },
  "48376": {
    "name": "สถานีอุตุนิยมวิทยาตาก",
    "address": "ต.น้ำริม อ.เมือง จ.ตาก",
    "lat": 16.8797222,
    "lon": 99.1402500,
    "region": "ภาคตะวันตก"
  },
  "48375": {
    "name": "สถานีอุตุนิยมวิทยาอุทกแมสอด",
    "address": "ต.ท่าสายลวด อ.แม่สอด จ.ตาก",
    "lat": 16.7027222,
    "lon": 98.5418333,
    "region": "ภาคตะวันตก"
  },
  "48377": {
    "name": "สถานีอุตุนิยมวิทยาเขื่อนภูมิพล",
    "address": "ต.สามเงา อ.สามเงา จ.ตาก",
    "lat": 17.2439444,
    "lon": 99.0025000,
    "region": "ภาคตะวันตก"
  },
  "48385": {
    "name": "สถานีอุตุนิยมวิทยาอุทกอุ้มผาง",
    "address": "ต.อุ้มผาง อ.อุ้มผาง จ.ตาก",
    "lat": 16.0254722,
    "lon": 98.8600833,
    "region": "ภาคตะวันตก"
  },
  "48387": {
    "name": "สถานีอุตุนิยมวิทยาเกษตรดอยมูเซอ",
    "address": "ต.แม่ท้อ อ.เมือง จ.ตาก",
    "lat": 16.7524444,
    "lon": 98.9355833,
    "region": "ภาคตะวันตก"
  },
  "48379": {
    "name": "สถานีอุตุนิยมวิทยาเพชรบูรณ์",
    "address": "ต.ในเมือง อ.เมือง จ.เพชรบูรณ์",
    "lat": 16.4347500,
    "lon": 101.1518611,
    "region": "ภาคกลาง"
  },
  "48413": {
    "name": "สถานีอุตุนิยมวิทยาอุทกวิเชียรบุรี",
    "address": "ต.ท่าโรง อ.วิเชียรบุรี จ.เพชรบูรณ์",
    "lat": 15.6570278,
    "lon": 101.1055000,
    "region": "ภาคกลาง"
  },
  "48374": {
    "name": "สถานีอุตุนิยมวิทยาอุทกหล่มสัก",
    "address": "ต.หล่มสัก อ.หล่มสัก จ.เพชรบูรณ์",
    "lat": 16.7739444,
    "lon": 101.2452500,
    "region": "ภาคกลาง"
  },
  "48378": {
    "name": "สถานีอุตุนิยมวิทยาพิษณุโลก",
    "address": "ต.อรัญญิก อ.เมือง จ.พิษณุโลก",
    "lat": 16.7962222,
    "lon": 100.2759444,
    "region": "ภาคกลาง"
  },
  "48380": {
    "name": "สถานีอุตุนิยมวิทยากำแพงเพชร",
    "address": "ต.ในเมือง อ.เมือง จ.กำแพงเพชร",
    "lat": 16.4868056,
    "lon": 99.5269722,
    "region": "ภาคกลาง"
  },
  "48372": {
    "name": "สถานีอุตุนิยมวิทยาสุโขทัย",
    "address": "ต.ทับผึ้ง อ.ศรีสำโรง จ.สุโขทัย",
    "lat": 17.1070833,
    "lon": 99.8003333,
    "region": "ภาคกลาง"
  },
  "48373": {
    "name": "สถานีอุตุนิยมวิทยาเกษตรศรีสำโรง",
    "address": "ต.คลองตาล อ.ศรีสำโรง จ.สุโขทัย",
    "lat": 17.1613611,
    "lon": 99.8616667,
    "region": "ภาคกลาง"
  },
  "48386": {
    "name": "สถานีอุตุนิยมวิทยาเกษตรพิจิตร",
    "address": "ต.ฆะมัง อ.เมือง จ.พิจิตร",
    "lat": 16.4375556,
    "lon": 100.2856944,
    "region": "ภาคกลาง"
  },
  "48381": {
    "name": "สถานีอุตุนิยมวิทยาขอนแกน (ศบ.)",
    "address": "ต.บ้านเป็ด อ.เมือง จ.ขอนแก่น",
    "lat": 16.4610278,
    "lon": 102.7896111,
    "region": "ภาคตะวันออกเฉียงเหนือ"
  },
  "48384": {
    "name": "สถานีอุตุนิยมวิทยาเกษตรท่าพระ",
    "address": "ต.ท่าพระ อ.เมือง จ.ขอนแก่น",
    "lat": 16.3354444,
    "lon": 102.8266944,
    "region": "ภาคตะวันออกเฉียงเหนือ"
  },
  "48352": {
    "name": "สถานีอุตุนิยมวิทยาหนองคาย",
    "address": "ต.โพธิ์ชัย อ.เมือง จ.หนองคาย",
    "lat": 17.8638333,
    "lon": 102.7508611,
    "region": "ภาคตะวันออกเฉียงเหนือ"
  },
  "48353": {
    "name": "สถานีอุตุนิยมวิทยาเลย",
    "address": "ต.นาอาน อ.เมือง จ.เลย",
    "lat": 17.4525833,
    "lon": 101.7306944,
    "region": "ภาคตะวันออกเฉียงเหนือ"
  },
  "48350": {
    "name": "สถานีอุตุนิยมวิทยาเกษตรเลย",
    "address": "ต.นาโป่ง อ.เมือง จ.เลย",
    "lat": 17.4096111,
    "lon": 101.7296944,
    "region": "ภาคตะวันออกเฉียงเหนือ"
  },
  "48354": {
    "name": "สถานีอุตุนิยมวิทยาอุดรธานี",
    "address": "ต.หมากแข้ง อ.เมือง จ.อุดรธานี",
    "lat": 17.3770833,
    "lon": 102.8096111,
    "region": "ภาคตะวันออกเฉียงเหนือ"
  },
  "48356": {
    "name": "สถานีอุตุนิยมวิทยาสกลนคร",
    "address": "ต.ธาตุเชิงมุม อ.เมือง จ.สกลนคร",
    "lat": 17.1548611,
    "lon": 104.1370278,
    "region": "ภาคตะวันออกเฉียงเหนือ"
  },
  "48355": {
    "name": "สถานีอุตุนิยมวิทยาเกษตรสกลนคร",
    "address": "ต.ห้วยยาง อ.เมือง จ.สกลนคร",
    "lat": 17.1250278,
    "lon": 104.0610000,
    "region": "ภาคตะวันออกเฉียงเหนือ"
  },
  "48357": {
    "name": "สถานีอุตุนิยมวิทยานครพนม",
    "address": "ต.ในเมือง อ.เมือง จ.นครพนม",
    "lat": 17.4106944,
    "lon": 104.7825833,
    "region": "ภาคตะวันออกเฉียงเหนือ"
  },
  "48358": {
    "name": "สถานีอุตุนิยมวิทยาเกษตรนครพนม",
    "address": "ต.ขามเฒ่า อ.เมือง จ.นครพนม",
    "lat": 17.2764167,
    "lon": 104.7736667,
    "region": "ภาคตะวันออกเฉียงเหนือ"
  },
  "48403": {
    "name": "สถานีอุตุนิยมวิทยาชัยภูมิ",
    "address": "ต.ในเมือง อ.เมือง จ.ชัยภูมิ",
    "lat": 15.8119167,
    "lon": 102.0291944,
    "region": "ภาคตะวันออกเฉียงเหนือ"
  },
  "48382": {
    "name": "สถานีอุตุนิยมวิทยาอุทกมหาสารคาม",
    "address": "ต.หัวขวาง อ.โกสุมพิสัย จ.มหาสารคาม",
    "lat": 16.2453611,
    "lon": 103.0696389,
    "region": "ภาคตะวันออกเฉียงเหนือ"
  },
  "48360": {
    "name": "สถานีอุตุนิยมวิทยาหนองบัวลำภู",
    "address": "ต.ลำภู อ.เมือง จ.หนองบัวลำภู",
    "lat": 17.2323889,
    "lon": 102.4295556,
    "region": "ภาคตะวันออกเฉียงเหนือ"
  },
  "48390": {
    "name": "สถานีอุตุนิยมวิทยาอุทกกาฬสินธุ์",
    "address": "ต.หลักเมือง อ.กมลาไสย จ.กาฬสินธุ์",
    "lat": 16.3305556,
    "lon": 103.5912500,
    "region": "ภาคตะวันออกเฉียงเหนือ"
  },
  "48363": {
    "name": "สถานีอุตุนิยมวิทยาบึงกาฬ",
    "address": "ต.ไคสี อ.เมือง จ.บึงกาฬ",
    "lat": 18.4136110,
    "lon": 103.5167220,
    "region": "ภาคตะวันออกเฉียงเหนือ"
  },
  "48407": {
    "name": "สถานีอุตุนิยมวิทยาอุบลราชธานี (ศล.)",
    "address": "ต.ปทุม อ.เมือง จ.อุบลราชธานี",
    "lat": 15.2438889,
    "lon": 104.8748611,
    "region": "ภาคตะวันออกเฉียงเหนือ"
  },
  "48408": {
    "name": "สถานีอุตุนิยมวิทยาเกษตรอุบลราชธานี",
    "address": "ต.ท่าช้าง อ.สว่างวีระวงศ์ จ.อุบลราชธานี",
    "lat": 15.2391389,
    "lon": 105.0235000,
    "region": "ภาคตะวันออกเฉียงเหนือ"
  },
  "48383": {
    "name": "สถานีอุตุนิยมวิทยามุกดาหาร",
    "address": "ต.มุกดาหาร อ.เมือง จ.มุกดาหาร",
    "lat": 16.5416389,
    "lon": 104.7290833,
    "region": "ภาคตะวันออกเฉียงเหนือ"
  },
  "48391": {
    "name": "สถานีอุตุนิยมวิทยาอำนาจเจริญ",
    "address": "ต.โนนหนามแท่ง อ.เมือง จ.อำนาจเจริญ",
    "lat": 15.9037500,
    "lon": 104.6180550,
    "region": "ภาคตะวันออกเฉียงเหนือ"
  },
  "48405": {
    "name": "สถานีอุตุนิยมวิทยาร้อยเอ็ด",
    "address": "ต.ในเมือง อ.เมือง จ.ร้อยเอ็ด",
    "lat": 16.0518056,
    "lon": 103.6643889,
    "region": "ภาคตะวันออกเฉียงเหนือ"
  },
  "48404": {
    "name": "สถานีอุตุนิยมวิทยาเกษตรร้อยเอ็ด",
    "address": "ต.เหนือเมือง อ.เมือง จ.ร้อยเอ็ด",
    "lat": 16.0732222,
    "lon": 103.6084444,
    "region": "ภาคตะวันออกเฉียงเหนือ"
  },
  "48406": {
    "name": "สถานีอุตุนิยมวิทยายโสธร",
    "address": "ต.ตาดทอง อ.เมือง จ.ยโสธร",
    "lat": 15.7949440,
    "lon": 104.2143610,
    "region": "ภาคตะวันออกเฉียงเหนือ"
  },
  "48431": {
    "name": "สถานีอุตุนิยมวิทยานครราชสีมา",
    "address": "ต.เมือง อ.เมือง จ.นครราชสีมา",
    "lat": 14.9683056,
    "lon": 102.0860278,
    "region": "ภาคตะวันออกเฉียงเหนือ"
  },
  "48434": {
    "name": "สถานีอุตุนิยมวิทยาอุทกโชคชัย",
    "address": "ต.โชคชัย อ.โชคชัย จ.นครราชสีมา",
    "lat": 14.7379722,
    "lon": 102.1681111,
    "region": "ภาคตะวันออกเฉียงเหนือ"
  },
  "48435": {
    "name": "สถานีอุตุนิยมวิทยาเกษตรปากช่อง",
    "address": "ต.กลางดง อ.ปากช่อง จ.นครราชสีมา",
    "lat": 14.6420556,
    "lon": 101.3215000,
    "region": "ภาคตะวันออกเฉียงเหนือ"
  },
  "48432": {
    "name": "สถานีอุตุนิยมวิทยาสุรินทร์",
    "address": "ต.นอกเมือง อ.เมือง จ.สุรินทร์",
    "lat": 14.8739444,
    "lon": 103.4996389,
    "region": "ภาคตะวันออกเฉียงเหนือ"
  },
  "48433": {
    "name": "สถานีอุตุนิยมวิทยาเกษตรสุรินทร์",
    "address": "ต.คอโค อ.เมือง จ.สุรินทร์",
    "lat": 14.8909444,
    "lon": 103.4524722,
    "region": "ภาคตะวันออกเฉียงเหนือ"
  },
  "48416": {
    "name": "สถานีอุตุนิยมวิทยาอุทกท่าตูม",
    "address": "ต.ท่าตูม อ.ท่าตูม จ.สุรินทร์",
    "lat": 15.3162778,
    "lon": 103.6803611,
    "region": "ภาคตะวันออกเฉียงเหนือ"
  },
  "48409": {
    "name": "สถานีอุตุนิยมวิทยาเกษตรศรีสะเกษ",
    "address": "ต.หนองครก อ.เมือง จ.ศรีสะเกษ",
    "lat": 15.0853056,
    "lon": 104.3306389,
    "region": "ภาคตะวันออกเฉียงเหนือ"
  },
  "48436": {
    "name": "สถานีอุตุนิยมวิทยาอุทกนางรอง",
    "address": "ต.หนองโบสถ์ อ.นางรอง จ.บุรีรัมย์",
    "lat": 14.6309722,
    "lon": 102.7213611,
    "region": "ภาคตะวันออกเฉียงเหนือ"
  },
  "48437": {
    "name": "สถานีอุตุนิยมวิทยาบุรีรัมย์ (สนามบินบุรีรัมย์)",
    "address": "ต.ร่อนทอง อ.สตึก จ.บุรีรัมย์",
    "lat": 15.2257500,
    "lon": 103.2480833,
    "region": "ภาคตะวันออกเฉียงเหนือ"
  },
  "48568": {
    "name": "สถานีอุตุนิยมวิทยาสงขลา (ศอ.)",
    "address": "ต.บอยาง อ.เมือง จ.สงขลา",
    "lat": 7.1821111,
    "lon": 100.6076944,
    "region": "ภาคใต้"
  },
  "48569": {
    "name": "สถานีอุตุนิยมวิทยาสงขลา (สนามบินหาดใหญ่)",
    "address": "ต.คลองหลา อ.คลองหอยโข่ง จ.สงขลา",
    "lat": 6.9376389,
    "lon": 100.3954722,
    "region": "ภาคใต้"
  },
  "48571": {
    "name": "สถานีอุตุนิยมวิทยาเกษตรคอหงส์",
    "address": "ต.คอหงส์ อ.หาดใหญ่ จ.สงขลา",
    "lat": 7.0156111,
    "lon": 100.5018889,
    "region": "ภาคใต้"
  },
  "48574": {
    "name": "สถานีอุตุนิยมวิทยาอุทกสะเดา",
    "address": "ต.ท่าโพธิ์ อ.สะเดา จ.สงขลา",
    "lat": 6.7872778,
    "lon": 100.4127778,
    "region": "ภาคใต้"
  },
  "48465": {
    "name": "สถานีอุตุนิยมวิทยาเพชรบุรี",
    "address": "ต.หาดเจ้าสำราญ อ.เมือง จ.เพชรบุรี",
    "lat": 13.0103320,
    "lon": 100.0594650,
    "region": "ภาคตะวันตก"
  },
  "48500": {
    "name": "สถานีอุตุนิยมวิทยาประจวบคีรีขันธ์",
    "address": "ต.เกาะหลัก อ.เมือง จ.ประจวบคีรีขันธ์",
    "lat": 11.8351111,
    "lon": 99.8103611,
    "region": "ภาคตะวันตก"
  },
  "48475": {
    "name": "สถานีอุตุนิยมวิทยาหัวหิน (หอเรดาร์)",
    "address": "ต.หัวหิน อ.หัวหิน จ.ประจวบคีรีขันธ์",
    "lat": 12.5778889,
    "lon": 99.9539444,
    "region": "ภาคตะวันตก"
  },
  "48474": {
    "name": "สถานีอุตุนิยมวิทยาเกษตรหนองพลับ",
    "address": "ต.หนองพลับ อ.หัวหิน จ.ประจวบคีรีขันธ์",
    "lat": 12.5889722,
    "lon": 99.7344722,
    "region": "ภาคตะวันตก"
  },
  "48517": {
    "name": "สถานีอุตุนิยมวิทยาชุมพร",
    "address": "ต.ท่าตะเภา อ.เมือง จ.ชุมพร",
    "lat": 10.4987500,
    "lon": 99.1884722,
    "region": "ภาคใต้"
  },
  "48520": {
    "name": "สถานีอุตุนิยมวิทยาเกษตรสวี",
    "address": "ต.วิสัยใต้ อ.สวี จ.ชุมพร",
    "lat": 10.3306389,
    "lon": 99.0927222,
    "region": "ภาคใต้"
  },
  "48550": {
    "name": "สถานีอุตุนิยมวิทยาเกาะสมุย",
    "address": "ต.มะเร็ต อ.เกาะสมุย จ.สุราษฎร์ธานี",
    "lat": 9.4490000,
    "lon": 100.0368056,
    "region": "ภาคใต้"
  },
  "48551": {
    "name": "สถานีอุตุนิยมวิทยาสุราษฎร์ธานี",
    "address": "ต.หัวเตย อ.พุนพิน จ.สุราษฎร์ธานี",
    "lat": 9.1342778,
    "lon": 99.1520556,
    "region": "ภาคใต้"
  },
  "48555": {
    "name": "สถานีอุตุนิยมวิทยาเกษตรสุราษฎร์ธานี",
    "address": "ต.ท่าอุแท อ.กาญจนดิษฐ์ จ.สุราษฎร์ธานี",
    "lat": 9.1428333,
    "lon": 99.6362778,
    "region": "ภาคใต้"
  },
  "48556": {
    "name": "สถานีอุตุนิยมวิทยาอุทกพระแสง",
    "address": "ต.อิปัน อ.พระแสง จ.สุราษฎร์ธานี",
    "lat": 8.5702222,
    "lon": 99.2582500,
    "region": "ภาคใต้"
  },
  "48552": {
    "name": "สถานีอุตุนิยมวิทยานครศรีธรรมราช",
    "address": "ต.ปากพูน อ.เมือง จ.นครศรีธรรมราช",
    "lat": 8.5441944,
    "lon": 99.9428611,
    "region": "ภาคใต้"
  },
  "48554": {
    "name": "สถานีอุตุนิยมวิทยาเกษตรนครศรีธรรมราช",
    "address": "ต.บางจาก อ.เมือง จ.นครศรีธรรมราช",
    "lat": 8.3593056,
    "lon": 100.0594444,
    "region": "ภาคใต้"
  },
  "48557": {
    "name": "สถานีอุตุนิยมวิทยาอุทกฉวาง",
    "address": "ต.ฉวาง อ.ฉวาง จ.นครศรีธรรมราช",
    "lat": 8.4246944,
    "lon": 99.5066111,
    "region": "ภาคใต้"
  },
  "48580": {
    "name": "สถานีอุตุนิยมวิทยาปัตตานี",
    "address": "ต.บ่อทอง อ.หนองจิก จ.ปัตตานี",
    "lat": 6.7900000,
    "lon": 101.1470833,
    "region": "ภาคใต้"
  },
  "48581": {
    "name": "สถานีอุตุนิยมวิทยาเกษตรยะลา",
    "address": "ต.สะเตง อ.เมือง จ.ยะลา",
    "lat": 6.5155278,
    "lon": 101.2735556,
    "region": "ภาคใต้"
  },
  "48583": {
    "name": "สถานีอุตุนิยมวิทยานราธิวาส",
    "address": "ต.บางนาค อ.เมือง จ.นราธิวาส",
    "lat": 6.4268889,
    "lon": 101.8251667,
    "region": "ภาคใต้"
  },
  "48560": {
    "name": "สถานีอุตุนิยมวิทยาเกษตรพัทลุง",
    "address": "ต.ลำปำ อ.เมือง จ.พัทลุง",
    "lat": 7.5806389,
    "lon": 100.1663056,
    "region": "ภาคใต้"
  },
  "48565": {
    "name": "สถานีอุตุนิยมวิทยาสนามบินภูเก็ต (ศต.)",
    "address": "ต.ไม้ขาว อ.ถลาง จ.ภูเก็ต",
    "lat": 8.1027222,
    "lon": 98.3109167,
    "region": "ภาคใต้"
  },
  "48564": {
    "name": "สถานีอุตุนิยมวิทยาภูเก็ต",
    "address": "ต.ตลาดใหญ่ อ.เมือง จ.ภูเก็ต",
    "lat": 7.8823889,
    "lon": 98.3952222,
    "region": "ภาคใต้"
  },
  "48532": {
    "name": "สถานีอุตุนิยมวิทยาระนอง",
    "address": "ต.บางริ้น อ.เมือง จ.ระนอง",
    "lat": 9.9526389,
    "lon": 98.6368056,
    "region": "ภาคใต้"
  },
  "48561": {
    "name": "สถานีอุตุนิยมวิทยาพังงา",
    "address": "ต.คึกคัก อ.ตะกั่วป่า จ.พังงา",
    "lat": 8.6821944,
    "lon": 98.2552222,
    "region": "ภาคใต้"
  },
  "48563": {
    "name": "สถานีอุตุนิยมวิทยากระบี่",
    "address": "ต.เหนือคลอง อ.เหนือคลอง จ.กระบี่",
    "lat": 8.1017222,
    "lon": 98.9783611,
    "region": "ภาคใต้"
  },
  "48566": {
    "name": "สถานีอุตุนิยมวิทยาเกาะลันตา",
    "address": "ต.เกาะลันตาใหญ่ อ.เกาะลันตา จ.กระบี่",
    "lat": 7.5426667,
    "lon": 99.0495278,
    "region": "ภาคใต้"
  },
  "48567": {
    "name": "สถานีอุตุนิยมวิทยาตรัง",
    "address": "ต.โคกหล่อ อ.เมือง จ.ตรัง",
    "lat": 7.5101667,
    "lon": 99.6238889,
    "region": "ภาคใต้"
  },
  "48570": {
    "name": "สถานีอุตุนิยมวิทยาสตูล",
    "address": "ต.คลองขุด อ.เมือง จ.สตูล",
    "lat": 6.6515278,
    "lon": 100.0862778,
    "region": "ภาคใต้"
  }
}
